{"type":"FeatureCollection","features":[{"type":"Feature","properties":{"County":"Alameda County","2011":269753.3301,"2012":373816.2002,"2013":1706657.46,"2014":3424395.11,"2015":3983712.176,"2016":1826644.231,"2017":1867584.249,"2018":2237646.569,"2019":2085452.061,"2020":2250464.26},"geometry":{"type":"Point","coordinates":[-121.905946,37.59787605]}},{"type":"Feature","properties":{"County":"Amador County","2011":1095035.106,"2012":787820.1,"2013":845397.01,"2014":687910.02,"2015":516936.0898,"2016":976882.1196,"2017":948868.12,"2018":742542.12,"2019":840414.12,"2020":700051.12},"geometry":{"type":"Point","coordinates":[-120.7888788,38.42164285]}},{"type":"Feature","properties":{"County":"Butte County","2011":4119905.643,"2012":2951894.602,"2013":2564601.46,"2014":1433479.62,"2015":1278258.041,"2016":3022010.44,"2017":3952798.69,"2018":2355525.469,"2019":4269235.65,"2020":1925119.499},"geometry":{"type":"Point","coordinates":[-121.6006701,39.66775469]}},{"type":"Feature","properties":{"County":"Calaveras County","2011":1092868,"2012":404745.1016,"2013":282611,"2014":225214,"2015":192577,"2016":618900.1001,"2017":1260267.5,"2018":498064.4998,"2019":1112991,"2020":377720},"geometry":{"type":"Point","coordinates":[-120.5538728,38.20510409]}},{"type":"Feature","properties":{"County":"Colusa County","2011":2185474,"2012":2880774,"2013":2732014,"2014":2654918,"2015":3725894,"2016":3105742,"2017":2683443,"2018":3157979,"2019":3216831,"2020":3184198},"geometry":{"type":"Point","coordinates":[-122.2371949,39.17797439]}},{"type":"Feature","properties":{"County":"Contra Costa County","2011":15321002.42,"2012":17718349.1,"2013":17216152.88,"2014":17012817.2,"2015":15714112.46,"2016":13558535.8,"2017":11162124.61,"2018":14085242.76,"2019":13932442.65,"2020":14287212.9},"geometry":{"type":"Point","coordinates":[-121.9274254,37.91560029]}},{"type":"Feature","properties":{"County":"El Dorado County","2011":2974781,"2012":1522297.5,"2013":1111246,"2014":812284,"2015":531050.02,"2016":2005320,"2017":2582526.102,"2018":1349884.01,"2019":2317644.01,"2020":798694.01},"geometry":{"type":"Point","coordinates":[-120.5094345,38.72350824]}},{"type":"Feature","properties":{"County":"Fresno County","2011":7223090.269,"2012":4193103.349,"2013":3682884.73,"2014":3876121.829,"2015":2957779.939,"2016":5344672.882,"2017":8963283.703,"2018":6815497.583,"2019":8314480.359,"2020":4754339.182},"geometry":{"type":"Point","coordinates":[-119.0001348,37.11527226]}},{"type":"Feature","properties":{"County":"Glenn County","2011":14256,"2012":14256,"2013":7843.01,"2014":5288.01,"2015":5841.01,"2016":11844,"2017":17200,"2018":7801,"2019":17901,"2020":9323.949997},"geometry":{"type":"Point","coordinates":[-122.3923203,39.59871865]}},{"type":"Feature","properties":{"County":"Humboldt County","2011":714481.2217,"2012":735753.6006,"2013":686040.9072,"2014":636190.2732,"2015":529183.4396,"2016":542333.21,"2017":527056.35,"2018":572987.74,"2019":611266.5998,"2020":640138.2101},"geometry":{"type":"Point","coordinates":[-123.8731398,40.70225894]}},{"type":"Feature","properties":{"County":"Imperial County","2011":5128811.52,"2012":5357378.594,"2013":5819894.73,"2014":7786152.37,"2015":8272184.309,"2016":8291347.91,"2017":8439747.082,"2018":8062040.091,"2019":9013186.3,"2020":9116697.841},"geometry":{"type":"Point","coordinates":[-115.365342,33.04039982]}},{"type":"Feature","properties":{"County":"Inyo County","2011":1977264,"2012":1776168,"2013":1530526.03,"2014":1402219.2,"2015":1316915.02,"2016":1421058.01,"2017":1740602.11,"2018":1513754.11,"2019":1609117.13,"2020":1419176.028},"geometry":{"type":"Point","coordinates":[-117.4134078,36.515439]}},{"type":"Feature","properties":{"County":"Kern County","2011":20165054.09,"2012":25749269.41,"2013":26416177.39,"2014":35175394.88,"2015":33159732.49,"2016":33262714.59,"2017":32849380.43,"2018":32118021.52,"2019":30894918.87,"2020":32151550.89},"geometry":{"type":"Point","coordinates":[-118.7305253,35.34406072]}},{"type":"Feature","properties":{"County":"Kings County","2011":155461.0195,"2012":213129,"2013":343869.1992,"2014":532897.32,"2015":712997.0996,"2016":1009563,"2017":1213652.398,"2018":1218787.429,"2019":1127774.01,"2020":1113163.649},"geometry":{"type":"Point","coordinates":[-119.8153043,36.07588389]}},{"type":"Feature","properties":{"County":"Lake County","2011":1790012.1,"2012":1816884.702,"2013":1674207,"2014":1603297,"2015":1361014.299,"2016":1422719.44,"2017":1240861.35,"2018":1299464.38,"2019":1133563.38,"2020":1260787.38},"geometry":{"type":"Point","coordinates":[-122.7172074,39.00863216]}},{"type":"Feature","properties":{"County":"Lassen County","2011":321667.1016,"2012":258013.0996,"2013":268394,"2014":235688,"2015":248987.4004,"2016":239129.7031,"2017":279257.3984,"2018":275137.6992,"2019":309391.2969,"2020":258166.0996},"geometry":{"type":"Point","coordinates":[-120.5948907,40.67589782]}},{"type":"Feature","properties":{"County":"Los Angeles County","2011":19301621.45,"2012":22937671.79,"2013":21892765.44,"2014":22394747.8,"2015":22470654.56,"2016":23526075.92,"2017":23629121.54,"2018":22737959.49,"2019":21928627.6,"2020":22525450.58},"geometry":{"type":"Point","coordinates":[-118.2169658,34.36239587]}},{"type":"Feature","properties":{"County":"Madera County","2011":1784843.682,"2012":786309.1011,"2013":770918.35,"2014":498735.4901,"2015":372744.7901,"2016":1235084.49,"2017":1968849.33,"2018":1019848.439,"2019":1400488.46,"2020":766558.9602},"geometry":{"type":"Point","coordinates":[-119.7616051,37.2192983]}},{"type":"Feature","properties":{"County":"Marin County","2011":0,"2012":2432,"2013":2432,"2014":2432,"2015":2432,"2016":3260,"2017":18184,"2018":33306,"2019":32135,"2020":27299},"geometry":{"type":"Point","coordinates":[-122.7195535,38.07327087]}},{"type":"Feature","properties":{"County":"Mariposa County","2011":531104,"2012":228173,"2013":157321,"2014":87716,"2015":11678,"2016":167168,"2017":491131,"2018":267771,"2019":387704,"2020":227903},"geometry":{"type":"Point","coordinates":[-119.905316,37.58200384]}},{"type":"Feature","properties":{"County":"Mendocino County","2011":43119,"2012":24518,"2013":22838.01,"2014":18022.04,"2015":24006.01,"2016":27234.01,"2017":41860.98975,"2018":31165.01,"2019":44771,"2020":32277},"geometry":{"type":"Point","coordinates":[-123.3914448,39.44286128]}},{"type":"Feature","properties":{"County":"Merced County","2011":-241994.4604,"2012":174497.4008,"2013":101462.3416,"2014":-34735.70031,"2015":137945.0703,"2016":158143.6298,"2017":206078.7108,"2018":324387.2795,"2019":291249.7205,"2020":385398.4299},"geometry":{"type":"Point","coordinates":[-120.717328,37.19262479]}},{"type":"Feature","properties":{"County":"Mono County","2011":329288,"2012":238681.4002,"2013":243292,"2014":262792,"2015":238132,"2016":300515,"2017":324059,"2018":249806,"2019":295108,"2020":290143},"geometry":{"type":"Point","coordinates":[-118.8881131,37.94091786]}},{"type":"Feature","properties":{"County":"Monterey County","2011":3272024,"2012":6158367,"2013":6122974.01,"2014":5341528.981,"2015":5057638.07,"2016":3707855.111,"2017":2982054.423,"2018":5352417.68,"2019":6163927.74,"2020":6019618.06},"geometry":{"type":"Point","coordinates":[-121.2398554,36.2183586]}},{"type":"Feature","properties":{"County":"Napa County","2011":16701,"2012":20049,"2013":16750,"2014":3244,"2015":3244,"2016":3244,"2017":3244,"2018":3244,"2019":3244,"2020":3244},"geometry":{"type":"Point","coordinates":[-122.3307085,38.50795222]}},{"type":"Feature","properties":{"County":"Nevada County","2011":544342.7969,"2012":418051.3008,"2013":318806,"2014":187352,"2015":227747,"2016":441941,"2017":596403,"2018":330364,"2019":451126,"2020":230752.7996},"geometry":{"type":"Point","coordinates":[-120.9607944,39.27335255]}},{"type":"Feature","properties":{"County":"Orange County","2011":1630334.06,"2012":1816016.2,"2013":1655517.039,"2014":1695171.89,"2015":1514390.749,"2016":1376948.599,"2017":1425276.81,"2018":1290427.258,"2019":1093249.912,"2020":2338152.003},"geometry":{"type":"Point","coordinates":[-117.7603501,33.70352675]}},{"type":"Feature","properties":{"County":"Placer County","2011":2464703.144,"2012":2286893.091,"2013":2017810.31,"2014":1722856.24,"2015":1580018.22,"2016":2295634.59,"2017":2411344.31,"2018":1921879.11,"2019":2591878.17,"2020":1556281.709},"geometry":{"type":"Point","coordinates":[-120.372969,39.17063608]}},{"type":"Feature","properties":{"County":"Plumas County","2011":2286555.6,"2012":1395939.303,"2013":1584104,"2014":1115051.249,"2015":1026276.102,"2016":1423258.02,"2017":2251829.01,"2018":1356763.04,"2019":2330109.14,"2020":1303252.329},"geometry":{"type":"Point","coordinates":[-120.838952,40.0054926]}},{"type":"Feature","properties":{"County":"Riverside County","2011":5137372.2,"2012":6139443.601,"2013":4755554.37,"2014":8629075.396,"2015":7363866.29,"2016":7179423.802,"2017":8323800.288,"2018":9096736.931,"2019":7512528.469,"2020":8018473.064},"geometry":{"type":"Point","coordinates":[-115.9938001,33.74423341]}},{"type":"Feature","properties":{"County":"Sacramento County","2011":5657182.02,"2012":6041808.1,"2013":6605655.08,"2014":6446636.122,"2015":6691973.199,"2016":6773175.031,"2017":5914961.971,"2018":6356043.448,"2019":5632003.56,"2020":5936241.189},"geometry":{"type":"Point","coordinates":[-121.3304521,38.46287501]}},{"type":"Feature","properties":{"County":"San Benito County","2011":0,"2012":1622,"2013":1622,"2014":3711,"2015":8484,"2016":12628,"2017":22710.08984,"2018":224277,"2019":393340.9099,"2020":337189.6201},"geometry":{"type":"Point","coordinates":[-121.0754657,36.60638852]}},{"type":"Feature","properties":{"County":"San Bernardino County","2011":11324510.61,"2012":16324197.42,"2013":13754519.64,"2014":13904720.06,"2015":13547410.22,"2016":13627759.96,"2017":12729059.73,"2018":10533119.87,"2019":12000615.61,"2020":10634452.06},"geometry":{"type":"Point","coordinates":[-116.1793976,34.84593113]}},{"type":"Feature","properties":{"County":"San Diego County","2011":24891446.27,"2012":11054438.68,"2013":10049975.4,"2014":9260499.74,"2015":9557161.992,"2016":7734669.569,"2017":7779751.53,"2018":5023119.039,"2019":4279471.413,"2020":6339301.528},"geometry":{"type":"Point","coordinates":[-116.7329024,33.03698877]}},{"type":"Feature","properties":{"County":"San Francisco County","2011":21190.12,"2012":51282,"2013":50244,"2014":51404,"2015":43138,"2016":33176,"2017":30986,"2018":41773,"2019":43689,"2020":33219},"geometry":{"type":"Point","coordinates":[-122.4426027,37.75456753]}},{"type":"Feature","properties":{"County":"San Joaquin County","2011":771744.3596,"2012":892375.7,"2013":2157933.359,"2014":2639682.3,"2015":3001392.76,"2016":1419312.631,"2017":2207724.231,"2018":2879901.379,"2019":2668566.931,"2020":1994462.35},"geometry":{"type":"Point","coordinates":[-121.2713052,37.9354571]}},{"type":"Feature","properties":{"County":"San Luis Obispo County","2011":18700141.24,"2012":17915723,"2013":18947187.41,"2014":18845670.12,"2015":20545831.01,"2016":20905666.01,"2017":19870684,"2018":20314366.31,"2019":18396551.81,"2020":18620329.96},"geometry":{"type":"Point","coordinates":[-120.4046096,35.38817554]}},{"type":"Feature","properties":{"County":"San Mateo County","2011":317049,"2012":140890.4001,"2013":120556,"2014":119172,"2015":106871,"2016":115912,"2017":113482,"2018":113948,"2019":116972,"2020":109010},"geometry":{"type":"Point","coordinates":[-122.3308757,37.42086847]}},{"type":"Feature","properties":{"County":"Santa Barbara County","2011":457650.1901,"2012":392754.9003,"2013":413174.521,"2014":439618.3601,"2015":193528.5596,"2016":53184.87003,"2017":54778.95914,"2018":154638.84,"2019":141104.9001,"2020":124189.6599},"geometry":{"type":"Point","coordinates":[-120.0226569,34.7253285]}},{"type":"Feature","properties":{"County":"Santa Clara County","2011":3097421.389,"2012":4877722.722,"2013":5413325.975,"2014":4538788.43,"2015":5094425.181,"2016":4317218.578,"2017":3473475.37,"2018":3618029.41,"2019":3746521.95,"2020":3458769.99},"geometry":{"type":"Point","coordinates":[-121.695121,37.23205501]}},{"type":"Feature","properties":{"County":"Santa Cruz County","2011":48789,"2012":49811.3999,"2013":37937.3999,"2014":30387.3999,"2015":45118.3999,"2016":65263.3999,"2017":64146,"2018":63140,"2019":63098,"2020":62124},"geometry":{"type":"Point","coordinates":[-122.0018741,37.05644406]}},{"type":"Feature","properties":{"County":"Shasta County","2011":8214449.369,"2012":6658529.399,"2013":6778373.541,"2014":5702456.19,"2015":5267152.312,"2016":6852195.627,"2017":8513240.695,"2018":6569705,"2019":8236280.122,"2020":6657484.83},"geometry":{"type":"Point","coordinates":[-122.0401064,40.76496928]}},{"type":"Feature","properties":{"County":"Sierra County","2011":47777,"2012":27213,"2013":22493.12988,"2014":14267.40002,"2015":3714,"2016":29673.73987,"2017":36417,"2018":25792,"2019":27740.76001,"2020":20172.1001},"geometry":{"type":"Point","coordinates":[-120.2651789,39.57738704]}},{"type":"Feature","properties":{"County":"Siskiyou County","2011":458606,"2012":378114.4023,"2013":324710,"2014":303929,"2015":298957,"2016":386578.2,"2017":454456,"2018":324457.9899,"2019":371499,"2020":313387.8008},"geometry":{"type":"Point","coordinates":[-122.0143026,41.59507209]}},{"type":"Feature","properties":{"County":"Solano County","2011":384042,"2012":449630,"2013":450244.1101,"2014":3076999.668,"2015":3175576.068,"2016":2923446.02,"2017":2875000.361,"2018":3201051.04,"2019":2906084.01,"2020":3094641.01},"geometry":{"type":"Point","coordinates":[-121.9188411,38.28504081]}},{"type":"Feature","properties":{"County":"Sonoma County","2011":5206854.921,"2012":5336156.7,"2013":5300252.17,"2014":5243447.02,"2015":5136906.12,"2016":5035622.839,"2017":5285358.12,"2018":5314460.17,"2019":4811728.32,"2020":5175673.05},"geometry":{"type":"Point","coordinates":[-122.8877094,38.52935037]}},{"type":"Feature","properties":{"County":"Stanislaus County","2011":1809403.139,"2012":2180581.6,"2013":2339419.18,"2014":2399260.33,"2015":2563943.25,"2016":2035111.728,"2017":2025353.722,"2018":2200921.988,"2019":2083805.762,"2020":2246480.688},"geometry":{"type":"Point","coordinates":[-120.9972841,37.55987809]}},{"type":"Feature","properties":{"County":"Sutter County","2011":1614550,"2012":1761831.399,"2013":1423411.631,"2014":1569210.03,"2015":1526984.06,"2016":357230.3498,"2017":353650.36,"2018":970937.0996,"2019":932676.3097,"2020":1092894},"geometry":{"type":"Point","coordinates":[-121.6950243,39.03508379]}},{"type":"Feature","properties":{"County":"Tehama County","2011":149209,"2012":114443,"2013":94446.38011,"2014":88803.31995,"2015":75550.87006,"2016":88372.90002,"2017":77452.68994,"2018":57011.38988,"2019":69357.28997,"2020":52385.43001},"geometry":{"type":"Point","coordinates":[-122.2335822,40.12635214]}},{"type":"Feature","properties":{"County":"Trinity County","2011":477904,"2012":443835,"2013":462096,"2014":296971,"2015":208637.01,"2016":310963.6,"2017":447980,"2018":299746,"2019":293246.3102,"2020":419849.0801},"geometry":{"type":"Point","coordinates":[-123.1119255,40.65342887]}},{"type":"Feature","properties":{"County":"Tulare County","2011":244269,"2012":195511.2008,"2013":450801.2792,"2014":482564.1101,"2015":556045.2095,"2016":633203.4297,"2017":960718.26,"2018":912319.1896,"2019":913041.4104,"2020":833419.2378},"geometry":{"type":"Point","coordinates":[-118.8005233,36.22149594]}},{"type":"Feature","properties":{"County":"Tuolumne County","2011":4953636.12,"2012":2821784.725,"2013":2860293.12,"2014":2119670.63,"2015":2047738.11,"2016":3268319.1,"2017":4756023.028,"2018":2743587.258,"2019":3895457.208,"2020":2738762.49},"geometry":{"type":"Point","coordinates":[-119.9247408,38.07222178]}},{"type":"Feature","properties":{"County":"Ventura County","2011":1257946.379,"2012":1679495.402,"2013":2020737.11,"2014":1576192.142,"2015":1872310.62,"2016":1424531.833,"2017":1608764,"2018":1230174.412,"2019":1137276.952,"2020":1633390.5},"geometry":{"type":"Point","coordinates":[-119.0782991,34.47204601]}},{"type":"Feature","properties":{"County":"Yolo County","2011":227687.1997,"2012":249404.1001,"2013":260077,"2014":259908.4094,"2015":265207.7798,"2016":268852.0098,"2017":277996.61,"2018":265343.6593,"2019":271561.79,"2020":117916.7306},"geometry":{"type":"Point","coordinates":[-121.9019103,38.68713017]}},{"type":"Feature","properties":{"County":"Yuba County","2011":0,"2012":1271572,"2013":1022030,"2014":661317,"2015":538510.1016,"2016":1288997,"2017":2038458,"2018":1313770.7,"2019":1939363.87,"2020":895389.99},"geometry":{"type":"Point","coordinates":[-121.3510047,39.26955525]}}]}